{"YXY": {"long": -135.066666, "lat": 60.716666, "group": 6, "c_code": "CYXY", "type": "Control Tower", "city": "Whitehorse", "prov": "Yukon"}, "YYJ": {"long": -123.433333, "lat": 48.65, "group": 2, "c_code": "CYYJ", "type": "Control Tower", "city": "Victoria", "prov": "British Columbia"}, "YYT": {"long": -52.75, "lat": 47.616666, "group": 9, "c_code": "CYYT", "type": "Control Tower", "city": "Saint John", "prov": "Newfoundland and Labrador"}, "YQX": {"long": -54.566666, "lat": 48.933333, "group": 9, "c_code": "CYQX", "type": "Control Tower", "city": "Gander", "prov": "Newfoundland and Labrador"}, "YHZ": {"long": -63.516666, "lat": 44.883333, "group": 15, "c_code": "CYHZ", "type": "Control Tower", "city": "Halifax", "prov": "Nova Scotia"}, "YQM": {"long": -64.683333, "lat": 46.116666, "group": 15, "c_code": "CYQM", "type": "Control Tower", "city": "Moncton", "prov": "New Brunswick"}, "NaN": {"long": -114.366666, "lat": 51.1, "group": 0, "c_code": "CYBW", "type": "Control Tower", "city": "Calgary", "prov": "Alberta"}, "YQB": {"long": -71.4, "lat": 46.8, "group": 1, "c_code": "CYQB", "type": "Control Tower", "city": "Quebec City", "prov": "Quebec"}, "YJN": {"long": -73.266666, "lat": 45.283333, "group": 1, "c_code": "CYJN", "type": "Control Tower", "city": "Saint Jean", "prov": "Quebec"}, "YHU": {"long": -73.416666, "lat": 45.516666, "group": 1, "c_code": "CYHU", "type": "Control Tower", "city": "Longueuil", "prov": "Quebec"}, "YUL": {"long": -73.733333, "lat": 45.466666, "group": 1, "c_code": "CYUL", "type": "Control Tower", "city": "Dorval", "prov": "Quebec"}, "YOW": {"long": -75.666666, "lat": 45.316666, "group": 1, "c_code": "CYOW", "type": "Control Tower", "city": "Ottawa", "prov": "Ontario"}, "YOO": {"long": -78.9, "lat": 43.916666, "group": 7, "c_code": "CYOO", "type": "Control Tower", "city": "Oshawa", "prov": "Ontario"}, "YKZ": {"long": -79.366666, "lat": 43.866666, "group": 7, "c_code": "CYKZ", "type": "Control Tower", "city": "Markham", "prov": "Ontario"}, "YTZ": {"long": -79.396101, "lat": 43.627888, "group": 7, "c_code": "CYTZ", "type": "Control Tower", "city": "Toronto", "prov": "Ontario"}, "YYZ": {"long": -79.633333, "lat": 43.683333, "group": 7, "c_code": "CYYZ", "type": "Control Tower", "city": "Mississauga", "prov": "Ontario"}, "YHM": {"long": -79.933333, "lat": 43.166666, "group": 7, "c_code": "CYHM", "type": "Control Tower", "city": "Hamilton", "prov": "Ontario"}, "YKF": {"long": -80.383333, "lat": 43.45, "group": 7, "c_code": "CYKF", "type": "Control Tower", "city": "Waterloo", "prov": "Ontario"}, "YXU": {"long": -81.15, "lat": 43.033333, "group": 7, "c_code": "CYXU", "type": "Control Tower", "city": "London", "prov": "Ontario"}, "YQG": {"long": -82.966666, "lat": 42.266666, "group": 7, "c_code": "CYQG", "type": "Control Tower", "city": "Windsor", "prov": "Ontario"}, "YAM": {"long": -84.516666, "lat": 46.483333, "group": 12, "c_code": "CYAM", "type": "Control Tower", "city": "Sault Sainte Marie", "prov": "Ontario"}, "YQT": {"long": -89.316666, "lat": 48.366666, "group": 3, "c_code": "CYQT", "type": "Control Tower", "city": "Thunder Bay", "prov": "Ontario"}, "YWG": {"long": -97.25, "lat": 49.916666, "group": 8, "c_code": "CYWG", "type": "Control Tower", "city": "Winnipeg", "prov": "Manitoba"}, "YQR": {"long": -104.666666, "lat": 50.433333, "group": 14, "c_code": "CYQR", "type": "Control Tower", "city": "Regina", "prov": "Saskatchewan"}, "YXE": {"long": -106.7, "lat": 52.166666, "group": 14, "c_code": "CYXE", "type": "Control Tower", "city": "Saskatoon", "prov": "Saskatchewan"}, "YMM": {"long": -111.216666, "lat": 56.65, "group": 0, "c_code": "CYMM", "type": "Control Tower", "city": "Fort McMurray", "prov": "Alberta"}, "YXD": {"long": -113.516666, "lat": 53.566666, "group": 0, "c_code": "CYXD", "type": "Control Tower", "city": "Edmonton", "prov": "Alberta"}, "YEG": {"long": -113.583333, "lat": 53.316666, "group": 0, "c_code": "CYEG", "type": "Control Tower", "city": "Edmonton", "prov": "Alberta"}, "YZF": {"long": -114.433333, "lat": 62.466666, "group": 4, "c_code": "CYZF", "type": "Control Tower", "city": "Yellowknife", "prov": "Northwest Territories"}, "YYC": {"long": -114.016666, "lat": 51.116666, "group": 0, "c_code": "CYYC", "type": "Control Tower", "city": "Calgary", "prov": "Alberta"}, "YXS": {"long": -122.683333, "lat": 53.883333, "group": 2, "c_code": "CYXS", "type": "Control Tower", "city": "Prince George", "prov": "British Columbia"}, "YLW": {"long": -119.383333, "lat": 49.95, "group": 2, "c_code": "CYLW", "type": "Control Tower", "city": "Kelowna", "prov": "British Columbia"}, "YXX": {"long": -122.366666, "lat": 49.033333, "group": 2, "c_code": "CYXX", "type": "Control Tower", "city": "Abbotsford", "prov": "British Columbia"}, "YLY": {"long": -122.616666, "lat": 49.1, "group": 2, "c_code": "CYNJ", "type": "Control Tower", "city": "Langley", "prov": "British Columbia"}, "CXH": {"long": -123.1, "lat": 49.283333, "group": 2, "c_code": "CYHC", "type": "Control Tower", "city": "Vancouver", "prov": "British Columbia"}, "YVR": {"long": -123.183333, "lat": 49.2, "group": 2, "c_code": "CYVR", "type": "Control Tower", "city": "Richmond", "prov": "British Columbia"}, "YPK": {"long": -122.7, "lat": 49.2, "group": 2, "c_code": "CYPK", "type": "Control Tower", "city": "Pitt Meadows", "prov": "British Columbia"}, "YDT": {"long": -123.0, "lat": 49.066666, "group": 2, "c_code": "CZBB", "type": "Control Tower", "city": "Ladner", "prov": "British Columbia"}, "YBL": {"long": -125.266666, "lat": 49.95, "group": 2, "c_code": "CYBL", "type": "Flight Service Station", "city": "Campbell River", "prov": "British Columbia"}, "YCD": {"long": -123.866666, "lat": 49.05, "group": 2, "c_code": "CYCD", "type": "Flight Service Station", "city": "Nanaimo", "prov": "British Columbia"}, "YWH": {"long": -123.366666, "lat": 48.416666, "group": 2, "c_code": "CYWH", "type": "Flight Service Station", "city": "Victoria", "prov": "British Columbia"}, "YYF": {"long": -119.6, "lat": 49.466666, "group": 2, "c_code": "CYYF", "type": "Flight Service Station", "city": "Penticton", "prov": "British Columbia"}, "YCG": {"long": -117.633333, "lat": 49.3, "group": 2, "c_code": "CYCG", "type": "Flight Service Station", "city": "Castlegar", "prov": "British Columbia"}, "YPR": {"long": -130.45, "lat": 54.283333, "group": 13, "c_code": "CYPR", "type": "Flight Service Station", "city": "Prince Rupert", "prov": "British Columbia"}, "YXT": {"long": -128.583333, "lat": 54.466666, "group": 13, "c_code": "CYXT", "type": "Flight Service Station", "city": "Terrace", "prov": "British Columbia"}, "YZT": {"long": -127.366666, "lat": 50.683333, "group": 13, "c_code": "CYZT", "type": "Flight Service Station", "city": "Port Hardy", "prov": "British Columbia"}, "YYD": {"long": -127.183333, "lat": 54.816666, "group": 13, "c_code": "CYYD", "type": "Flight Service Station", "city": "Smithers", "prov": "British Columbia"}, "YVQ": {"long": -126.8, "lat": 65.283333, "group": 6, "c_code": "CYVQ", "type": "Flight Service Station", "city": "Norman Wells", "prov": "Northwest Territories"}, "YWL": {"long": -122.05, "lat": 52.183333, "group": 2, "c_code": "CYWL", "type": "Flight Service Station", "city": "Williams Lake", "prov": "British Columbia"}, "YXJ": {"long": -120.733333, "lat": 56.233333, "group": 4, "c_code": "CYXJ", "type": "Flight Service Station", "city": "Fort Saint John", "prov": "British Columbia"}, "YQU": {"long": -118.883333, "lat": 55.183333, "group": 4, "c_code": "CYQU", "type": "Flight Service Station", "city": "Grande Prairie", "prov": "Alberta"}, "YPE": {"long": -117.45, "lat": 56.233333, "group": 4, "c_code": "CYPE", "type": "Flight Service Station", "city": "Peace River", "prov": "Alberta"}, "YYE": {"long": -122.6, "lat": 58.833333, "group": 4, "c_code": "CYYE", "type": "Flight Service Station", "city": "Fort Nelson", "prov": "British Columbia"}, "YKA": {"long": -120.45, "lat": 50.7, "group": 2, "c_code": "CYKA", "type": "Flight Service Station", "city": "Kamloops", "prov": "British Columbia"}, "YXC": {"long": -115.783333, "lat": 49.616666, "group": 0, "c_code": "CYXC", "type": "Flight Service Station", "city": "Cranbrook", "prov": "British Columbia"}, "YQL": {"long": -112.8, "lat": 49.633333, "group": 0, "c_code": "CYQL", "type": "Flight Service Station", "city": "Lethbridge", "prov": "Alberta"}, "YXH": {"long": -110.716666, "lat": 50.016666, "group": 0, "c_code": "CYXH", "type": "Flight Service Station", "city": "Medicine Hat", "prov": "Alberta"}, "YZU": {"long": -115.783333, "lat": 54.133333, "group": 0, "c_code": "CYZU", "type": "Flight Service Station", "city": "Whitecourt", "prov": "Alberta"}, "YQF": {"long": -113.883333, "lat": 52.166666, "group": 0, "c_code": "CYQF", "type": "Flight Service Station", "city": "Red Deer", "prov": "Alberta"}, "YLL": {"long": -110.066666, "lat": 53.316666, "group": 0, "c_code": "CYLL", "type": "Flight Service Station", "city": "Lloydminster", "prov": "Alberta"}, "YPA": {"long": -105.666666, "lat": 53.216666, "group": 14, "c_code": "CYPA", "type": "Flight Service Station", "city": "Prince Albert", "prov": "Saskatchewan"}, "YVC": {"long": -105.266666, "lat": 55.15, "group": 14, "c_code": "CYVC", "type": "Flight Service Station", "city": "La Ronge", "prov": "Saskatchewan"}, "YQK": {"long": -94.366666, "lat": 49.783333, "group": 3, "c_code": "CYQK", "type": "Flight Service Station", "city": "Kenora", "prov": "Ontario"}, "YXL": {"long": -91.9, "lat": 50.116666, "group": 3, "c_code": "CYXL", "type": "Flight Service Station", "city": "Sioux Lookout", "prov": "Ontario"}, "YTH": {"long": -97.866666, "lat": 55.8, "group": 10, "c_code": "CYTH", "type": "Flight Service Station", "city": "Thompson", "prov": "Manitoba"}, "YYQ": {"long": -94.066666, "lat": 58.733333, "group": 10, "c_code": "CYYQ", "type": "Flight Service Station", "city": "Churchill", "prov": "Manitoba"}, "YBR": {"long": -99.95, "lat": 49.916666, "group": 8, "c_code": "CYBR", "type": "Flight Service Station", "city": "Brandon", "prov": "Manitoba"}, "YOJ": {"long": -117.166666, "lat": 58.616666, "group": 4, "c_code": "CYOJ", "type": "Flight Service Station", "city": "High Level", "prov": "Alberta"}, "YCM": {"long": -79.171111, "lat": 43.191667, "group": 7, "c_code": "CYSN", "type": "Flight Service Station", "city": "Niagra-on-the-lake", "prov": "Ontario"}, "YWK": {"long": -66.866666, "lat": 52.916666, "group": 5, "c_code": "CYWK", "type": "Flight Service Station", "city": "Wabush", "prov": "Newfoundland and Labrador"}, "YDF": {"long": -57.383333, "lat": 49.216666, "group": 9, "c_code": "CYDF", "type": "Flight Service Station", "city": "Deer Lake", "prov": "Newfoundland and Labrador"}, "YYG": {"long": -63.116666, "lat": 46.283333, "group": 15, "c_code": "CYYG", "type": "Flight Service Station", "city": "Charlottetown", "prov": "Prince Edward Island"}, "YZV": {"long": -66.266666, "lat": 50.216666, "group": 5, "c_code": "CYZV", "type": "Flight Service Station", "city": "Seven Islands", "prov": "Quebec"}, "YSJ": {"long": -65.883333, "lat": 45.316666, "group": 15, "c_code": "CYSJ", "type": "Flight Service Station", "city": "Saint John", "prov": "New Brunswick"}, "YEV": {"long": -133.483333, "lat": 68.3, "group": 6, "c_code": "CYEV", "type": "Flight Service Station", "city": "Inuvik", "prov": "Northwest Territories"}, "YFB": {"long": -68.55, "lat": 63.75, "group": 11, "c_code": "CYFB", "type": "Flight Service Station", "city": "Iqaluit", "prov": "Nunavut"}, "YVP": {"long": -68.433333, "lat": 58.1, "group": 11, "c_code": "CYVP", "type": "Flight Service Station", "city": "Kuujjuaq", "prov": "Quebec"}, "YGL": {"long": -77.7, "lat": 53.633333, "group": 12, "c_code": "CYGL", "type": "Flight Service Station", "city": "Radisson", "prov": "Quebec"}, "YYY": {"long": -68.2, "lat": 48.616666, "group": 5, "c_code": "CYYY", "type": "Flight Service Station", "city": "Mont Jolie", "prov": "Quebec"}, "YVO": {"long": -77.783333, "lat": 48.05, "group": 12, "c_code": "CYVO", "type": "Flight Service Station", "city": "Bourlamaque", "prov": "Quebec"}, "YUY": {"long": -78.833333, "lat": 48.2, "group": 12, "c_code": "CYUY", "type": "Flight Service Station", "city": "McWatters", "prov": "Quebec"}, "YTS": {"long": -81.383333, "lat": 48.566666, "group": 12, "c_code": "CYTS", "type": "Flight Service Station", "city": "Timmins", "prov": "Ontario"}, "YSB": {"long": -80.8, "lat": 46.633333, "group": 12, "c_code": "CYSB", "type": "Flight Service Station", "city": "Falconbridge", "prov": "Ontario"}, "YRT": {"long": -92.116666, "lat": 62.816666, "group": 10, "c_code": "CYRT", "type": "Flight Service Station", "city": "Rankin Inlet", "prov": "Nunavut"}, "YGK": {"long": -76.6, "lat": 44.233333, "group": 1, "c_code": "CYGK", "type": "Flight Service Station", "city": "Kingston", "prov": "Ontario"}, "YND": {"long": -75.566666, "lat": 45.516666, "group": 1, "c_code": "CYND", "type": "Flight Service Station", "city": "Gatineau", "prov": "Quebec"}, "YYB": {"long": -79.416666, "lat": 46.366666, "group": 12, "c_code": "CYYB", "type": "Flight Service Station", "city": "North Bay", "prov": "Ontario"}, "YGR": {"long": -61.783333, "lat": 47.416666, "group": 15, "c_code": "CYGR", "type": "Flight Service Station", "city": "Iles-de-la-Madeleine", "prov": "Quebec"}, "YMX": {"long": -74.033333, "lat": 45.683333, "group": 1, "c_code": "CYMX", "type": "Control Tower / Flight Service Station", "city": "Mirabel", "prov": "Quebec"}, "YFC": {"long": -66.533333, "lat": 45.866666, "group": 15, "c_code": "CYFC", "type": "Control Tower / Flight Service Station", "city": "Fredericton", "prov": "New Brunswick"}}